{
  "type":"FeatureCollection",
  "features":[
    {
      "type":"Feature",
      "properties":{
        "title":"San Blas Islands",
        "imageUrl":"https://c1.staticflickr.com/5/4241/35467523155_346b08810f_q.jpg",
        "type":"beach",
        "iconSize":[
          60,
          60
        ]
      },
      "geometry":{
        "type":"Point",
        "coordinates":[
          -78.82,
          9.57
        ]
      }
    },
    {
      "type":"Feature",
      "properties":{
        "title":"San Juan Del Sur",
        "imageUrl":"https://c1.staticflickr.com/5/4379/36844732181_78bd19e9eb_q.jpg",
        "type":"beach",
        "iconSize":[
          50,
          50
        ]
      },
      "geometry":{
        "type":"Point",
        "coordinates":[
          -85.8639766,
          11.263406
        ]
      }
    },
    {
      "type":"Feature",
      "properties":{
        "title":"Little Corn Island",
        "imageUrl":"https://c1.staticflickr.com/5/4348/36844765631_03e90607bd_q.jpg",
        "type":"beach",
        "iconSize":[
          40,
          40
        ]
      },
      "geometry":{
        "type":"Point",
        "coordinates":[
          -82.98509939999997,
          12.2937504
        ]
      }
    },
    {
      "type":"Feature",
      "properties":{
        "title":"San Salvador",
        "imageUrl":"https://c1.staticflickr.com/5/4333/36825444362_4291ce6d1e_q.jpg",
        "type":"city",
        "iconSize":[
          40,
          40
        ]
      },
      "geometry":{
        "type":"Point",
        "coordinates":[
          -89.218191,
          13.692940
        ]
      }
    },
    {
      "type":"Feature",
      "properties":{
        "title":"Monteverde",
        "imageUrl":"https://c1.staticflickr.com/5/4347/36857337771_d1bb7f798a_q.jpg",
        "type":"jungle",
        "iconSize":[
          40,
          40
        ]
      },
      "geometry":{
        "type":"Point",
        "coordinates":[
          -84.8535067,
          10.2855218
        ]
      }
    },
    {
      "type":"Feature",
      "properties":{
        "title":"Volcano Acatenango",
        "imageUrl":"https://c1.staticflickr.com/5/4421/36997408855_bfdb9f1fba_q.jpg",
        "type":"mountain"
      },
      "geometry":{
        "type":"Point",
        "coordinates":[
          -90.875666,
          14.500461
        ]
      }
    },
    {
      "type":"Feature",
      "properties":{
        "title":"Mexico City",
        "imageUrl":"https://c1.staticflickr.com/5/4388/36837224452_98940aa9e4_q.jpg",
        "type":"city"
      },
      "geometry":{
        "type":"Point",
        "coordinates":[
          -99.13320799999997,
          19.4326077
        ]
      }
    },
    {
      "type":"Feature",
      "properties":{
        "title":"Oaxaca City",
        "imageUrl":"https://c1.staticflickr.com/5/4357/36172707494_2b8ea05f04_q.jpg",
        "type":"city"
      },
      "geometry":{
        "type":"Point",
        "coordinates":[
          -96.7216219,
          17.0594169
        ]
      }
    },
    {
      "type":"Feature",
      "properties":{
        "title":"Tulum",
        "imageUrl":"https://c1.staticflickr.com/5/4390/36837410552_fbeb6d1cdc_q.jpg",
        "type":"beach"
      },
      "geometry":{
        "type":"Point",
        "coordinates":[
          -87.46535019999999,
          20.2114185
        ]
      }
    }
  ]
}